[
  {
    "name": "강남레이스클럽",
    "category": "클럽",
    "cat_slug": "club",
    "region": "서울",
    "region_slug": "seoul",
    "district": "서초구",
    "district_slug": "seocho",
    "slug": "race",
    "address": "서울 서초구 강남대로 597 글래드라이브 호텔 B1F",
    "phone": "010-5605-7713",
    "hours": "목·금·토·일 23:00~06:00",
    "station": "강남역 도보 5분",
    "thumbnail": "/images/girl-model-party.png",
    "image_alt": "강남레이스클럽 서울 서초 클럽 썸네일",
    "badge": "HOT",
    "tags": [
      "EDM",
      "대형",
      "강남역"
    ],
    "map_url": "https://map.naver.com/v5/search/%EA%B0%95%EB%82%A8%EB%A0%88%EC%9D%B4%EC%8A%A4%ED%81%B4%EB%9F%BD",
    "card_hook": "호텔 로비를 지나 엘리베이터를 타는 순간, 일상이 끊긴다. 문이 열리면 베이스가 전신을 감싸고 강남 한복판의 밤이 시작된다.",
    "card_value": "금·토 23시 오픈. 강남역 도보 5분. 신분증 필수.",
    "card_tags": [
      "EDM",
      "강남역",
      "호텔B1"
    ],
    "keywords": [
      "강남클럽",
      "클럽레이스",
      "EDM클럽"
    ],
    "source_urls": []
  },
  {
    "name": "강남옥타곤클럽",
    "category": "클럽",
    "cat_slug": "club",
    "region": "서울",
    "region_slug": "seoul",
    "district": "강남구",
    "district_slug": "gangnam",
    "slug": "octagon",
    "address": "서울 강남구 논현로 645 뉴힐탑호텔 B1~B2",
    "phone": "010-4145-4565",
    "hours": "목·금·토·일 22:00~06:00",
    "station": "신논현역 도보 3분",
    "thumbnail": "/images/girl-model-party.png",
    "image_alt": "강남옥타곤클럽 서울 강남 클럽 썸네일",
    "badge": "MEGA",
    "tags": [
      "메가클럽",
      "EDM",
      "아시아TOP"
    ],
    "map_url": "https://map.naver.com/v5/search/%EA%B0%95%EB%82%A8%EC%98%A5%ED%83%80%EA%B3%A4%ED%81%B4%EB%9F%BD",
    "card_hook": "B1과 B2를 가로지르는 360도 LED가 시야를 삼킨다. 아시아 TOP 5에 이름을 올린 규모는 직접 서 봐야 실감한다.",
    "card_value": "금요 자정 전 도착 필수. 신논현역 도보 3분.",
    "card_tags": [
      "메가클럽",
      "LED연출",
      "사전예약"
    ],
    "keywords": [
      "강남옥타곤클럽",
      "강남클럽",
      "메가클럽"
    ],
    "source_urls": []
  },
  {
    "name": "강남아르테클럽",
    "category": "클럽",
    "cat_slug": "club",
    "region": "서울",
    "region_slug": "seoul",
    "district": "서초구",
    "district_slug": "seocho",
    "slug": "arte",
    "address": "서울 서초구 강남대로 415 대동빌딩 B1F",
    "phone": "",
    "hours": "수·목·금·토 23:00~08:00",
    "station": "강남역 도보 3분",
    "thumbnail": "/images/girl-model-party.png",
    "image_alt": "강남아르테클럽 서울 서초 클럽 썸네일",
    "badge": null,
    "tags": [
      "미디어아트",
      "강남역",
      "접근성"
    ],
    "map_url": "https://map.naver.com/v5/search/%EA%B0%95%EB%82%A8%EC%95%84%EB%A5%B4%ED%85%8C%ED%81%B4%EB%9F%BD",
    "card_hook": "벽과 천장을 뒤덮는 미디어아트 조명이 음악에 맞춰 숨 쉰다. 강남역 출구에서 3분, 접근성까지 완벽한 새벽형 클럽.",
    "card_value": "수~토 23시 오픈, 새벽 8시 마감. 2호선 강남역 도보 3분.",
    "card_tags": [
      "미디어아트",
      "강남역",
      "새벽영업"
    ],
    "keywords": [
      "강남아르테클럽",
      "강남역클럽"
    ],
    "source_urls": []
  },
  {
    "name": "강남무인클럽",
    "category": "클럽",
    "cat_slug": "club",
    "region": "서울",
    "region_slug": "seoul",
    "district": "강남구",
    "district_slug": "gangnam",
    "slug": "muin",
    "address": "서울 강남구 도산대로 536 호텔프리마 B1",
    "phone": "",
    "hours": "예약 시 안내",
    "station": "압구정로데오역 도보 5분",
    "thumbnail": "/images/girl-model-party.png",
    "image_alt": "강남무인클럽 서울 강남 클럽 썸네일",
    "badge": null,
    "tags": [
      "프리미엄",
      "DJ바",
      "드레스코드"
    ],
    "map_url": "https://map.naver.com/v5/search/%EA%B0%95%EB%82%A8%EB%AC%B4%EC%9D%B8%ED%81%B4%EB%9F%BD",
    "card_hook": "한국적 미학과 모던 비트가 교차하는 프리미엄 DJ바. 예약 확정 전까지 주소조차 공개되지 않는 문턱이 분위기를 만든다.",
    "card_value": "위치 비공개 — 예약 확정 후 주소 안내. 드레스코드 엄격.",
    "card_tags": [
      "프리미엄",
      "DJ바",
      "드레스코드"
    ],
    "keywords": [
      "강남무인클럽",
      "강남프리미엄"
    ],
    "source_urls": []
  },
  {
    "name": "강남사운드클럽",
    "category": "클럽",
    "cat_slug": "club",
    "region": "서울",
    "region_slug": "seoul",
    "district": "강남구",
    "district_slug": "gangnam",
    "slug": "sound",
    "address": "서울 강남구 도산대로 114 B1",
    "phone": "010-5605-7713",
    "hours": "월·화·수·토 23:00~06:00",
    "station": "신사역 도보 7분",
    "thumbnail": "/images/girl-model-party.png",
    "image_alt": "강남사운드클럽 서울 강남 클럽 썸네일",
    "badge": null,
    "tags": [
      "하우스",
      "테크노",
      "도산"
    ],
    "map_url": "https://map.naver.com/v5/search/%EA%B0%95%EB%82%A8%EC%82%AC%EC%9A%B4%EB%93%9C%ED%81%B4%EB%9F%BD",
    "card_hook": "RACE가 쉬는 월·화·수에 도산 골목이 깨어난다. 하우스와 테크노 중심, 주말 인파 없이 사운드에 집중하는 평일 밤.",
    "card_value": "월·화·수·토 23시 오픈. 신사역 도보 7분.",
    "card_tags": [
      "하우스",
      "테크노",
      "평일영업"
    ],
    "keywords": [
      "클럽사운드",
      "강남클럽",
      "도산클럽"
    ],
    "source_urls": []
  },
  {
    "name": "강남페이스클럽",
    "category": "클럽",
    "cat_slug": "club",
    "region": "서울",
    "region_slug": "seoul",
    "district": "서초구",
    "district_slug": "seocho",
    "slug": "face",
    "address": "서울 서초구 강남대로69길 8",
    "phone": "",
    "hours": "금·토 23:00~06:00",
    "station": "강남역 도보 5분",
    "thumbnail": "/images/girl-model-party.png",
    "image_alt": "강남페이스클럽 서울 서초 클럽 썸네일",
    "badge": null,
    "tags": [
      "EDM",
      "강남역",
      "주말집중"
    ],
    "map_url": "https://map.naver.com/v5/search/%EA%B0%95%EB%82%A8%ED%8E%98%EC%9D%B4%EC%8A%A4%ED%81%B4%EB%9F%BD",
    "card_hook": "금요일과 토요일, 딱 이틀만 문을 연다. 선택과 집중 전략 덕에 주말 밀도와 에너지가 압축된다.",
    "card_value": "금·토만 운영. 강남역 도보 5분. 드레스코드 있음.",
    "card_tags": [
      "EDM",
      "강남역",
      "주말전용"
    ],
    "keywords": [
      "강남페이스클럽",
      "강남주말클럽"
    ],
    "source_urls": []
  },
  {
    "name": "강남잭리빈클럽",
    "category": "클럽",
    "cat_slug": "club",
    "region": "서울",
    "region_slug": "seoul",
    "district": "강남구",
    "district_slug": "gangnam",
    "slug": "jack-livin",
    "address": "서울 강남구 강남대로 588 (신사역 3번출구)",
    "phone": "",
    "hours": "23:00~10:00",
    "station": "신사역 3번 출구 직결",
    "thumbnail": "/images/girl-model-party.png",
    "image_alt": "강남잭리빈클럽 서울 강남 클럽 썸네일",
    "badge": null,
    "tags": [
      "신사역",
      "올나이트",
      "새벽"
    ],
    "map_url": "https://map.naver.com/v5/search/%EA%B0%95%EB%82%A8%EC%9E%AD%EB%A6%AC%EB%B9%88%ED%81%B4%EB%9F%BD",
    "card_hook": "지하철 출구와 바로 연결되는 올나이트 클럽. 밤 11시에 들어가 아침 10시에 나오는 마라톤 나이트가 가능하다.",
    "card_value": "23시~10시. 신사역 3번 출구 직결.",
    "card_tags": [
      "신사역",
      "올나이트",
      "역직결"
    ],
    "keywords": [
      "강남잭리빈클럽",
      "신사역클럽"
    ],
    "source_urls": []
  },
  {
    "name": "강남어게인클럽",
    "category": "클럽",
    "cat_slug": "club",
    "region": "서울",
    "region_slug": "seoul",
    "district": "강남구",
    "district_slug": "gangnam",
    "slug": "again",
    "address": "서울 강남구 삼성동 143-35",
    "phone": "",
    "hours": "금·토 22:00~06:00",
    "station": "삼성역 도보 8분",
    "thumbnail": "/images/girl-model-party.png",
    "image_alt": "강남어게인클럽 서울 강남 클럽 썸네일",
    "badge": null,
    "tags": [
      "삼성동",
      "EDM",
      "댄스"
    ],
    "map_url": "https://map.naver.com/v5/search/%EA%B0%95%EB%82%A8%EC%96%B4%EA%B2%8C%EC%9D%B8%ED%81%B4%EB%9F%BD",
    "card_hook": "삼성동 좁은 골목, 간판 없이도 주말이면 줄이 늘어선다. 좁은 입구 뒤 넓은 플로어의 반전이 첫 방문자를 놀라게 한다.",
    "card_value": "금·토 22시 오픈. 삼성역 도보 8분.",
    "card_tags": [
      "삼성동",
      "EDM",
      "히든스팟"
    ],
    "keywords": [
      "강남어게인클럽",
      "삼성동클럽"
    ],
    "source_urls": []
  },
  {
    "name": "홍대비원클럽",
    "category": "클럽",
    "cat_slug": "club",
    "region": "서울",
    "region_slug": "seoul",
    "district": "마포구",
    "district_slug": "mapo",
    "slug": "b1",
    "address": "서울 마포구 와우산로17길 6 B1",
    "phone": "",
    "hours": "금·토 22:00~06:00",
    "station": "홍대입구역 도보 5분",
    "thumbnail": "/images/girl-model-party.png",
    "image_alt": "홍대비원클럽 서울 마포 클럽 썸네일",
    "badge": "TOP",
    "tags": [
      "올장르",
      "홍대대표",
      "심야"
    ],
    "map_url": "https://map.naver.com/v5/search/%ED%99%8D%EB%8C%80%EB%B9%84%EC%9B%90%ED%81%B4%EB%9F%BD",
    "card_hook": "계단을 내려서는 순간 홍대 씬의 날것이 시작된다. 주변 클럽이 문을 닫은 뒤에도 이 지하는 북적인다.",
    "card_value": "금·토 22시~새벽 6시. 입장료 1~2만 원대.",
    "card_tags": [
      "올장르",
      "홍대",
      "심야"
    ],
    "keywords": [
      "B1클럽",
      "홍대클럽"
    ],
    "source_urls": []
  },
  {
    "name": "홍대레이저클럽",
    "category": "클럽",
    "cat_slug": "club",
    "region": "서울",
    "region_slug": "seoul",
    "district": "마포구",
    "district_slug": "mapo",
    "slug": "laser",
    "address": "서울 마포구 홍대입구역 인근",
    "phone": "",
    "hours": "금·토 22:00~06:00",
    "station": "홍대입구역 9번 출구 도보 5분",
    "thumbnail": "/images/girl-model-party.png",
    "image_alt": "홍대레이저클럽 서울 마포 클럽 썸네일",
    "badge": null,
    "tags": [
      "하이브리드",
      "홍대",
      "가성비"
    ],
    "map_url": "https://map.naver.com/v5/search/%ED%99%8D%EB%8C%80%EB%A0%88%EC%9D%B4%EC%A0%80%ED%81%B4%EB%9F%BD",
    "card_hook": "암전된 플로어를 한 줄기 레이저가 가르면 환호가 터진다. 테크노와 힙합을 오가는 하이브리드 셋리스트가 지루할 틈을 준다.",
    "card_value": "입장료 1만 원대. 홍대입구역 9번 출구 도보 5분.",
    "card_tags": [
      "하이브리드",
      "가성비",
      "홍대"
    ],
    "keywords": [
      "홍대레이저클럽",
      "홍대클럽"
    ],
    "source_urls": []
  },
  {
    "name": "홍대아우라클럽",
    "category": "클럽",
    "cat_slug": "club",
    "region": "서울",
    "region_slug": "seoul",
    "district": "마포구",
    "district_slug": "mapo",
    "slug": "aura",
    "address": "서울 마포구 서교동 364-24",
    "phone": "010-6667-6460",
    "hours": "목·금·토 22:00~06:00",
    "station": "홍대입구역 도보 7분",
    "thumbnail": "/images/girl-model-party.png",
    "image_alt": "홍대아우라클럽 서울 마포 클럽 썸네일",
    "badge": null,
    "tags": [
      "소규모",
      "음향특화",
      "평일추천"
    ],
    "map_url": "https://map.naver.com/v5/search/%ED%99%8D%EB%8C%80%EC%95%84%EC%9A%B0%EB%9D%BC%ED%81%B4%EB%9F%BD",
    "card_hook": "높은 천장 덕분에 사람이 차도 답답함이 없다. 음향 설계에 진심인 소규모 플로어에서 DJ와 눈이 마주치는 거리.",
    "card_value": "주말 입장 제한 빈번. 목~토 운영, 평일 추천.",
    "card_tags": [
      "소규모",
      "음향특화",
      "평일추천"
    ],
    "keywords": [
      "홍대아우라클럽",
      "홍대소규모클럽"
    ],
    "source_urls": []
  },
  {
    "name": "홍대사보타지클럽",
    "category": "클럽",
    "cat_slug": "club",
    "region": "서울",
    "region_slug": "seoul",
    "district": "마포구",
    "district_slug": "mapo",
    "slug": "sabotage",
    "address": "서울 마포구 서교동 홍대입구역 인근",
    "phone": "",
    "hours": "금·토 22:00~06:00",
    "station": "홍대입구역 도보 5분",
    "thumbnail": "/images/girl-model-party.png",
    "image_alt": "홍대사보타지클럽 서울 마포 클럽 썸네일",
    "badge": null,
    "tags": [
      "힙합",
      "일렉트로닉",
      "홍대"
    ],
    "map_url": "https://map.naver.com/v5/search/%ED%99%8D%EB%8C%80%EC%82%AC%EB%B3%B4%ED%83%80%EC%A7%80%ED%81%B4%EB%9F%BD",
    "card_hook": "홍대 힙합의 대명사. 강렬한 비트 위에서 모르는 사람과 어깨가 부딪히는 순간, 리듬이 인사를 대신한다.",
    "card_value": "금·토 집중. 운동화 OK, 슬리퍼 불가.",
    "card_tags": [
      "힙합",
      "홍대",
      "운동화OK"
    ],
    "keywords": [
      "홍대사보타지클럽",
      "홍대힙합클럽"
    ],
    "source_urls": []
  },
  {
    "name": "홍대버뮤다클럽",
    "category": "클럽",
    "cat_slug": "club",
    "region": "서울",
    "region_slug": "seoul",
    "district": "마포구",
    "district_slug": "mapo",
    "slug": "bermuda",
    "address": "서울 마포구 와우산로 70 군봉빌딩 B1~B2",
    "phone": "",
    "hours": "목~일 22:00~08:00",
    "station": "홍대입구역 도보 5분",
    "thumbnail": "/images/girl-model-party.png",
    "image_alt": "홍대버뮤다클럽 서울 마포 클럽 썸네일",
    "badge": null,
    "tags": [
      "2층구조",
      "올장르",
      "새벽"
    ],
    "map_url": "https://map.naver.com/v5/search/%ED%99%8D%EB%8C%80%EB%B2%84%EB%AE%A4%EB%8B%A4%ED%81%B4%EB%9F%BD",
    "card_hook": "B1과 B2를 오가며 장르를 고르는 재미가 있다. 층마다 분위기가 다르고, 새벽 8시까지 운영해 시간 압박이 사라진다.",
    "card_value": "목~일 22시~08시. 2개 층 장르 선택 가능.",
    "card_tags": [
      "2층구조",
      "올장르",
      "심야영업"
    ],
    "keywords": [
      "홍대버뮤다클럽",
      "홍대2층클럽"
    ],
    "source_urls": []
  },
  {
    "name": "홍대퍼플클럽",
    "category": "클럽",
    "cat_slug": "club",
    "region": "서울",
    "region_slug": "seoul",
    "district": "마포구",
    "district_slug": "mapo",
    "slug": "purple",
    "address": "서울 마포구 서교동 408-6 B1",
    "phone": "",
    "hours": "연중무휴 (평일 22:00, 주말 21:00)",
    "station": "홍대입구역 도보 6분",
    "thumbnail": "/images/girl-model-party.png",
    "image_alt": "홍대퍼플클럽 서울 마포 클럽 썸네일",
    "badge": null,
    "tags": [
      "연중무휴",
      "평일영업",
      "홍대"
    ],
    "map_url": "https://map.naver.com/v5/search/%ED%99%8D%EB%8C%80%ED%8D%BC%ED%94%8C%ED%81%B4%EB%9F%BD",
    "card_hook": "365일 문을 닫지 않는다. 월요일 밤에도 플로어가 움직인다는 건, 팬층 두께가 남다르다는 증거.",
    "card_value": "연중무휴. 평일 22시, 주말 21시 오픈.",
    "card_tags": [
      "연중무휴",
      "평일영업",
      "홍대"
    ],
    "keywords": [
      "홍대퍼플클럽",
      "홍대연중무휴"
    ],
    "source_urls": []
  },
  {
    "name": "홍대오션클럽",
    "category": "클럽",
    "cat_slug": "club",
    "region": "서울",
    "region_slug": "seoul",
    "district": "마포구",
    "district_slug": "mapo",
    "slug": "ocean",
    "address": "서울 마포구 잔다리로 6 B2",
    "phone": "010-2746-3180",
    "hours": "매일 22:00~06:30 (화 휴무)",
    "station": "홍대입구역 도보 4분",
    "thumbnail": "/images/girl-model-party.png",
    "image_alt": "홍대오션클럽 서울 마포 클럽 썸네일",
    "badge": null,
    "tags": [
      "B2",
      "댄스",
      "화요휴무"
    ],
    "map_url": "https://map.naver.com/v5/search/%ED%99%8D%EB%8C%80%EC%98%A4%EC%85%98%ED%81%B4%EB%9F%BD",
    "card_hook": "지하 2층까지 내려가면 바다 테마 조명이 플로어를 감싼다. 화요일 하루만 쉬고 매일 운영하는 안정감.",
    "card_value": "매일 22시~06시 30분(화 휴무). 홍대입구역 4분.",
    "card_tags": [
      "매일영업",
      "B2",
      "홍대"
    ],
    "keywords": [
      "홍대오션클럽",
      "홍대클럽"
    ],
    "source_urls": []
  },
  {
    "name": "홍대에프에프클럽",
    "category": "클럽",
    "cat_slug": "club",
    "region": "서울",
    "region_slug": "seoul",
    "district": "마포구",
    "district_slug": "mapo",
    "slug": "ff",
    "address": "서울 마포구 서교동 407-8 B1",
    "phone": "010-9025-3407",
    "hours": "금·토 22:00~06:00",
    "station": "홍대입구역 도보 5분",
    "thumbnail": "/images/girl-model-party.png",
    "image_alt": "홍대에프에프클럽 서울 마포 클럽 썸네일",
    "badge": null,
    "tags": [
      "라이브",
      "댄스",
      "홍대"
    ],
    "map_url": "https://map.naver.com/v5/search/%ED%99%8D%EB%8C%80%EC%97%90%ED%94%84%EC%97%90%ED%94%84%ED%81%B4%EB%9F%BD",
    "card_hook": "라이브 밴드가 무대를 달구다 DJ에게 바통을 넘기는 하이브리드 구성. 공연의 열기가 댄스 타임으로 자연스럽게 이어진다.",
    "card_value": "금·토 22시 오픈. 라이브+DJ 혼합 프로그램.",
    "card_tags": [
      "라이브",
      "댄스",
      "홍대"
    ],
    "keywords": [
      "클럽FF",
      "홍대라이브클럽"
    ],
    "source_urls": []
  },
  {
    "name": "이태원파우스트클럽",
    "category": "클럽",
    "cat_slug": "club",
    "region": "서울",
    "region_slug": "seoul",
    "district": "용산구",
    "district_slug": "yongsan",
    "slug": "faust",
    "address": "서울 용산구 보광로60길 7 3F",
    "phone": "",
    "hours": "금·토 23:00~05:00",
    "station": "이태원역 3번 출구 도보 7분",
    "thumbnail": "/images/girl-model-party.png",
    "image_alt": "이태원파우스트클럽 서울 용산 클럽 썸네일",
    "badge": "TECHNO",
    "tags": [
      "테크노",
      "언더그라운드",
      "이태원"
    ],
    "map_url": "https://map.naver.com/v5/search/%EC%9D%B4%ED%83%9C%EC%9B%90%ED%8C%8C%EC%9A%B0%EC%8A%A4%ED%8A%B8%ED%81%B4%EB%9F%BD",
    "card_hook": "이태원 뒷골목 3층, 한국 최초 음향 전용 설계를 반영한 테크노 전당. 서울에서 베를린의 밤을 경험하는 가장 빠른 방법.",
    "card_value": "금·토 23시 오픈. 이태원역 3번 출구 도보 7분.",
    "card_tags": [
      "테크노",
      "언더그라운드",
      "이태원"
    ],
    "keywords": [
      "이태원파우스트클럽",
      "이태원테크노"
    ],
    "source_urls": []
  },
  {
    "name": "이태원케이크샵클럽",
    "category": "클럽",
    "cat_slug": "club",
    "region": "서울",
    "region_slug": "seoul",
    "district": "용산구",
    "district_slug": "yongsan",
    "slug": "cakeshop",
    "address": "서울 용산구 이태원로 134 B1",
    "phone": "",
    "hours": "목~토 22:00~05:00",
    "station": "이태원역 도보 3분",
    "thumbnail": "/images/girl-model-party.png",
    "image_alt": "이태원케이크샵클럽 서울 용산 클럽 썸네일",
    "badge": null,
    "tags": [
      "하우스",
      "테크노",
      "이태원"
    ],
    "map_url": "https://map.naver.com/v5/search/%EC%9D%B4%ED%83%9C%EC%9B%90%EC%BC%80%EC%9D%B4%ED%81%AC%EC%83%B5%ED%81%B4%EB%9F%BD",
    "card_hook": "간판 없는 계단 아래, 서울에서 가장 실험적인 사운드가 숨어 있다. 외국인 비율이 높아 언어 대신 음악으로 통하는 밤.",
    "card_value": "목~토 22시 오픈. 이태원역 도보 3분.",
    "card_tags": [
      "실험음악",
      "다국적",
      "이태원"
    ],
    "keywords": [
      "이태원케이크샵클럽",
      "이태원클럽"
    ],
    "source_urls": []
  },
  {
    "name": "이태원볼노스트클럽",
    "category": "클럽",
    "cat_slug": "club",
    "region": "서울",
    "region_slug": "seoul",
    "district": "용산구",
    "district_slug": "yongsan",
    "slug": "volnost",
    "address": "서울 용산구 이태원동",
    "phone": "",
    "hours": "금·토 23:00~06:00",
    "station": "이태원역 도보 5분",
    "thumbnail": "/images/girl-model-party.png",
    "image_alt": "이태원볼노스트클럽 서울 용산 클럽 썸네일",
    "badge": null,
    "tags": [
      "테크노",
      "미니멀",
      "이태원"
    ],
    "map_url": "https://map.naver.com/v5/search/%EC%9D%B4%ED%83%9C%EC%9B%90%EB%B3%BC%EB%85%B8%EC%8A%A4%ED%8A%B8%ED%81%B4%EB%9F%BD",
    "card_hook": "작고 어두운 플로어에서 시작된 밤이 새벽 6시를 넘기는 일이 잦다. 이태원 언더그라운드 테크노의 핵심 거점.",
    "card_value": "금·토 23시~06시. 테크노·미니멀 전문.",
    "card_tags": [
      "테크노",
      "미니멀",
      "이태원"
    ],
    "keywords": [
      "이태원볼노스트클럽",
      "이태원테크노"
    ],
    "source_urls": []
  },
  {
    "name": "청담82클럽",
    "category": "클럽",
    "cat_slug": "club",
    "region": "서울",
    "region_slug": "seoul",
    "district": "강남구",
    "district_slug": "gangnam",
    "slug": "plus82",
    "address": "서울 강남구 청담동 도산대로 539",
    "phone": "",
    "hours": "새벽 04:00~09:00",
    "station": "청담역 도보 5분",
    "thumbnail": "/images/girl-model-party.png",
    "image_alt": "청담82클럽 서울 강남 클럽 썸네일",
    "badge": "AFTER",
    "tags": [
      "애프터",
      "새벽",
      "청담"
    ],
    "map_url": "https://map.naver.com/v5/search/%EC%B2%AD%EB%8B%B482%ED%81%B4%EB%9F%BD",
    "card_hook": "다른 클럽이 불을 끄는 새벽 4시, 여기서 진짜 밤이 열린다. 아침 9시까지 이어지는 애프터 문화의 정점.",
    "card_value": "새벽 04시~09시. 청담역 도보 5분.",
    "card_tags": [
      "애프터",
      "새벽전용",
      "청담"
    ],
    "keywords": [
      "플러스82",
      "청담애프터"
    ],
    "source_urls": []
  },
  {
    "name": "서면아지트클럽",
    "category": "클럽",
    "cat_slug": "club",
    "region": "부산",
    "region_slug": "busan",
    "district": "부산진구",
    "district_slug": "busanjin",
    "slug": "azit",
    "address": "부산 부산진구 중앙대로680번길 12-6 3층",
    "phone": "",
    "hours": "금·토 22:00~06:00",
    "station": "서면역 도보 5분",
    "thumbnail": "/images/girl-model-party.png",
    "image_alt": "서면아지트클럽 부산 부산진 클럽 썸네일",
    "badge": null,
    "tags": [
      "서면",
      "EDM",
      "부산"
    ],
    "map_url": "https://map.naver.com/v5/search/%EC%84%9C%EB%A9%B4%EC%95%84%EC%A7%80%ED%8A%B8%ED%81%B4%EB%9F%BD",
    "card_hook": "서면 한복판 3층, 지하가 아닌 높은 곳에서 내려다보며 추는 춤이 색다르다. 부산 클러버들의 비밀 아지트.",
    "card_value": "서면역 도보 5분. 금·토 22시 오픈.",
    "card_tags": [
      "서면",
      "EDM",
      "부산"
    ],
    "keywords": [
      "서면아지트클럽",
      "부산서면클럽"
    ],
    "source_urls": []
  },
  {
    "name": "서면그리드클럽",
    "category": "클럽",
    "cat_slug": "club",
    "region": "부산",
    "region_slug": "busan",
    "district": "부산진구",
    "district_slug": "busanjin",
    "slug": "grid",
    "address": "부산 부산진구 부전동 543-2",
    "phone": "",
    "hours": "금·토 22:00~06:00",
    "station": "서면역 도보 7분",
    "thumbnail": "/images/girl-model-party.png",
    "image_alt": "서면그리드클럽 부산 부산진 클럽 썸네일",
    "badge": null,
    "tags": [
      "서면",
      "힙합",
      "R&B"
    ],
    "map_url": "https://map.naver.com/v5/search/%EC%84%9C%EB%A9%B4%EA%B7%B8%EB%A6%AC%EB%93%9C%ED%81%B4%EB%9F%BD",
    "card_hook": "매주 다른 게스트 DJ가 턴테이블을 잡아 같은 밤이 두 번 없다. 부산 서면 힙합 씬의 중심축.",
    "card_value": "서면역 도보 7분. 힙합·R&B 중심.",
    "card_tags": [
      "서면",
      "힙합",
      "R&B"
    ],
    "keywords": [
      "서면그리드클럽",
      "부산힙합클럽"
    ],
    "source_urls": []
  },
  {
    "name": "서면그루브클럽",
    "category": "클럽",
    "cat_slug": "club",
    "region": "부산",
    "region_slug": "busan",
    "district": "부산진구",
    "district_slug": "busanjin",
    "slug": "groove",
    "address": "부산 부산진구 서면 일대",
    "phone": "",
    "hours": "21:00~07:00",
    "station": "서면역 도보 5분",
    "thumbnail": "/images/girl-model-party.png",
    "image_alt": "서면그루브클럽 부산 부산진 클럽 썸네일",
    "badge": null,
    "tags": [
      "서면",
      "올나이트",
      "댄스"
    ],
    "map_url": "https://map.naver.com/v5/search/%EC%84%9C%EB%A9%B4%EA%B7%B8%EB%A3%A8%EB%B8%8C%ED%81%B4%EB%9F%BD",
    "card_hook": "밤 9시부터 아침 7시까지, 부산에서 가장 긴 밤을 보낼 수 있다. 10시간 논스톱 비트 위에서 체력의 한계를 시험한다.",
    "card_value": "21시~07시 올나이트. 서면역 도보 5분.",
    "card_tags": [
      "올나이트",
      "서면",
      "10시간"
    ],
    "keywords": [
      "서면그루브클럽",
      "부산올나이트"
    ],
    "source_urls": []
  },
  {
    "name": "해운대빌리진클럽",
    "category": "클럽",
    "cat_slug": "club",
    "region": "부산",
    "region_slug": "busan",
    "district": "해운대구",
    "district_slug": "haeundae",
    "slug": "billie-jean",
    "address": "부산 해운대구 센텀시티 일대",
    "phone": "",
    "hours": "20:00~05:00",
    "station": "센텀시티역 도보 10분",
    "thumbnail": "/images/girl-model-party.png",
    "image_alt": "해운대빌리진클럽 부산 해운대 클럽 썸네일",
    "badge": null,
    "tags": [
      "해운대",
      "센텀",
      "팝"
    ],
    "map_url": "https://map.naver.com/v5/search/%ED%95%B4%EC%9A%B4%EB%8C%80%EB%B9%8C%EB%A6%AC%EC%A7%84%ED%81%B4%EB%9F%BD",
    "card_hook": "해운대 바닷바람을 안고 들어서면 팝과 댄스가 교차하는 무대가 펼쳐진다. 관광객과 로컬이 반반, 독특한 에너지.",
    "card_value": "20시~05시. 센텀시티역 도보 10분.",
    "card_tags": [
      "해운대",
      "센텀",
      "팝"
    ],
    "keywords": [
      "해운대빌리진클럽",
      "해운대클럽"
    ],
    "source_urls": []
  },
  {
    "name": "해운대멜트클럽",
    "category": "클럽",
    "cat_slug": "club",
    "region": "부산",
    "region_slug": "busan",
    "district": "해운대구",
    "district_slug": "haeundae",
    "slug": "melt",
    "address": "부산 해운대구 일대",
    "phone": "",
    "hours": "21:00~04:30",
    "station": "해운대역 도보 15분",
    "thumbnail": "/images/girl-model-party.png",
    "image_alt": "해운대멜트클럽 부산 해운대 클럽 썸네일",
    "badge": null,
    "tags": [
      "해운대",
      "일렉트로닉",
      "프리미엄"
    ],
    "map_url": "https://map.naver.com/v5/search/%ED%95%B4%EC%9A%B4%EB%8C%80%EB%A9%9C%ED%8A%B8%ED%81%B4%EB%9F%BD",
    "card_hook": "해외 게스트 DJ 라인업이 부산 일렉트로닉 씬에서 독보적이다. 해운대의 밤을 녹여내는 프리미엄 무대.",
    "card_value": "21시~04시 30분. 사전 예약 권장.",
    "card_tags": [
      "해운대",
      "일렉트로닉",
      "프리미엄"
    ],
    "keywords": [
      "해운대멜트클럽",
      "해운대프리미엄클럽"
    ],
    "source_urls": []
  },
  {
    "name": "대구바밤바클럽",
    "category": "클럽",
    "cat_slug": "club",
    "region": "대구",
    "region_slug": "daegu",
    "district": "달서구",
    "district_slug": "dalseo",
    "slug": "babamba",
    "address": "대구 달서구 달구벌대로 1910 B1",
    "phone": "",
    "hours": "연중무휴 21:00~05:00",
    "station": "죽전역 도보 10분",
    "thumbnail": "/images/girl-model-party.png",
    "image_alt": "대구바밤바클럽 대구 달서 클럽 썸네일",
    "badge": null,
    "tags": [
      "대구",
      "연중무휴",
      "EDM"
    ],
    "map_url": "https://map.naver.com/v5/search/%EB%8C%80%EA%B5%AC%EB%B0%94%EB%B0%A4%EB%B0%94%ED%81%B4%EB%9F%BD",
    "card_hook": "대구 유일의 연중무휴 클럽. 화요일에도 비트가 살아 있어 요일을 따지지 않고 문을 두드릴 수 있다.",
    "card_value": "연중무휴 21시~05시. 죽전역 도보 10분.",
    "card_tags": [
      "대구",
      "연중무휴",
      "EDM"
    ],
    "keywords": [
      "대구바밤바클럽",
      "대구클럽"
    ],
    "source_urls": []
  },
  {
    "name": "대전올에어클럽",
    "category": "클럽",
    "cat_slug": "club",
    "region": "대전",
    "region_slug": "daejeon",
    "district": "서구",
    "district_slug": "seogu",
    "slug": "all-air",
    "address": "대전 서구 대덕대로185번길 19 6층",
    "phone": "",
    "hours": "목·금·토·일 22:00~06:00",
    "station": "둔산동 도보 10분",
    "thumbnail": "/images/girl-model-party.png",
    "image_alt": "대전올에어클럽 대전 서 클럽 썸네일",
    "badge": null,
    "tags": [
      "대전",
      "둔산동",
      "EDM"
    ],
    "map_url": "https://map.naver.com/v5/search/%EB%8C%80%EC%A0%84%EC%98%AC%EC%97%90%EC%96%B4%ED%81%B4%EB%9F%BD",
    "card_hook": "둔산동 6층, 도시 야경을 등지고 춤추는 독특한 구조. 충청권 클럽 씬의 새 흐름을 만들고 있다.",
    "card_value": "목~일 22시 오픈. 둔산동 소재.",
    "card_tags": [
      "대전",
      "둔산동",
      "야경"
    ],
    "keywords": [
      "대전올에어클럽",
      "대전클럽"
    ],
    "source_urls": []
  },
  {
    "name": "제주커튼클럽",
    "category": "클럽",
    "cat_slug": "club",
    "region": "제주",
    "region_slug": "jeju",
    "district": "제주시",
    "district_slug": "jejusi",
    "slug": "curtain",
    "address": "제주시 신대로16길 57, 10층",
    "phone": "",
    "hours": "금·토 22:00~05:00",
    "station": "제주시 연동 소재",
    "thumbnail": "/images/girl-model-party.png",
    "image_alt": "제주커튼클럽 제주 제주 클럽 썸네일",
    "badge": null,
    "tags": [
      "제주",
      "루프탑",
      "EDM"
    ],
    "map_url": "https://map.naver.com/v5/search/%EC%A0%9C%EC%A3%BC%EC%BB%A4%ED%8A%BC%ED%81%B4%EB%9F%BD",
    "card_hook": "제주 연동 10층, 창 너머로 한라산 야경이 내려다보인다. 여행 마지막 밤을 불태우기에 딱 맞는 높이.",
    "card_value": "금·토 22시~05시. 제주시 연동.",
    "card_tags": [
      "제주",
      "10층",
      "야경"
    ],
    "keywords": [
      "제주커튼클럽",
      "제주클럽"
    ],
    "source_urls": []
  },
  {
    "name": "제주몽키비치클럽",
    "category": "클럽",
    "cat_slug": "club",
    "region": "제주",
    "region_slug": "jeju",
    "district": "서귀포시",
    "district_slug": "seogwipo",
    "slug": "monkey-beach",
    "address": "서귀포시 중문관광로72번길 29-9",
    "phone": "010-4643-2557",
    "hours": "21:00~03:00",
    "station": "중문관광단지 인근",
    "thumbnail": "/images/girl-model-party.png",
    "image_alt": "제주몽키비치클럽 제주 서귀포 클럽 썸네일",
    "badge": null,
    "tags": [
      "중문",
      "비치",
      "트로피컬"
    ],
    "map_url": "https://map.naver.com/v5/search/%EC%A0%9C%EC%A3%BC%EB%AA%BD%ED%82%A4%EB%B9%84%EC%B9%98%ED%81%B4%EB%9F%BD",
    "card_hook": "중문 해변에서 걸어갈 수 있는 트로피컬 클럽. 파도 소리와 DJ 세트가 겹치는 건 제주에서만 가능하다.",
    "card_value": "21시~03시. 중문관광단지 인근. 예약 권장.",
    "card_tags": [
      "중문",
      "비치",
      "트로피컬"
    ],
    "keywords": [
      "제주몽키비치클럽",
      "제주서귀포클럽"
    ],
    "source_urls": []
  },
  {
    "name": "이태원와이키키유토피아클럽",
    "category": "클럽",
    "cat_slug": "club",
    "region": "서울",
    "region_slug": "seoul",
    "district": "용산구",
    "district_slug": "yongsan",
    "slug": "waikiki-utopia",
    "address": "서울 용산구 이태원동 일대",
    "phone": "",
    "hours": "금·토 22:00~06:00",
    "station": "이태원역 도보 5분",
    "thumbnail": "/images/girl-model-party.png",
    "image_alt": "이태원와이키키유토피아클럽 서울 용산 클럽 썸네일",
    "badge": null,
    "tags": [
      "이태원",
      "EDM",
      "파티"
    ],
    "map_url": "https://map.naver.com/v5/search/이태원%20와이키키유토피아클럽",
    "card_hook": "이태원 한복판, 하와이 무드와 유토피아 컨셉이 결합된 파티 공간. 이국적인 인테리어 속에서 밤이 시작된다.",
    "card_value": "금·토 22시 오픈. 이태원역 도보 5분.",
    "card_tags": [
      "이태원",
      "파티",
      "이국적"
    ],
    "keywords": [
      "와이키키유토피아",
      "이태원클럽",
      "와이키키클럽"
    ],
    "source_urls": []
  },
  {
    "name": "수유샴푸나이트",
    "category": "나이트",
    "cat_slug": "night",
    "region": "서울",
    "region_slug": "seoul",
    "district": "강북구",
    "district_slug": "gangbuk",
    "slug": "suyu-shampoo",
    "address": "서울 강북구 도봉로 308",
    "phone": "010-7475-2342",
    "hours": "19:00~05:00",
    "station": "수유역 4호선 3번 출구 도보 4분",
    "thumbnail": "/y/og-image.jpg",
    "image_alt": "수유샴푸나이트 서울 강북 나이트 썸네일",
    "badge": null,
    "tags": [
      "강북",
      "가성비",
      "수유역",
      "댄스"
    ],
    "map_url": "https://map.naver.com/v5/search/수유%20샴푸나이트",
    "detail_page": "/y/",
    "card_hook": "4호선 수유역 3번 출구에서 4분, 강북 대표 나이트. 접근성과 가격 모두 부담이 없다.",
    "card_value": "19시~05시. 수유역 3번 출구 도보 4분.",
    "card_tags": [
      "강북",
      "가성비",
      "수유역"
    ],
    "keywords": [
      "수유나이트",
      "수유샴푸",
      "강북나이트"
    ],
    "source_urls": []
  },
  {
    "name": "상봉동한국관나이트",
    "category": "나이트",
    "cat_slug": "night",
    "region": "서울",
    "region_slug": "seoul",
    "district": "중랑구",
    "district_slug": "jungnang",
    "slug": "hangukgwan",
    "address": "서울 중랑구 망우로 326",
    "phone": "010-5243-7994",
    "hours": "19:00~05:00",
    "station": "상봉역 7호선 2번 출구 도보 5분",
    "thumbnail": "/b/sangbong-hangukgwan-night-thumb.png",
    "image_alt": "상봉동한국관나이트 서울 중랑 나이트 썸네일",
    "badge": null,
    "tags": [
      "라이브",
      "90년대",
      "상봉역"
    ],
    "map_url": "https://map.naver.com/v5/search/상봉동%20한국관나이트",
    "detail_page": "/b/",
    "card_hook": "주말이면 초대 가수 무대가 열리고 90년대 히트곡이 플로어를 달군다. 테이블·부스·룸 세 가지 선택지.",
    "card_value": "상봉역 도보 5분. 19시~05시. 현금 소액 준비 권장.",
    "card_tags": [
      "라이브",
      "90년대",
      "상봉역"
    ],
    "keywords": [
      "상봉나이트",
      "한국관나이트"
    ],
    "source_urls": []
  },
  {
    "name": "인천아라비안나이트",
    "category": "나이트",
    "cat_slug": "night",
    "region": "인천",
    "region_slug": "incheon",
    "district": "계양구",
    "district_slug": "gyeyang",
    "slug": "arabian",
    "address": "인천 계양구 도두리로 일대",
    "phone": "010-2133-1346",
    "hours": "21:00~06:00 (연중무휴)",
    "station": "계양역 도보 5분",
    "thumbnail": "/i/arabian-night-thumb.png",
    "image_alt": "인천아라비안나이트 인천 계양 나이트 썸네일",
    "badge": null,
    "tags": [
      "인천최대",
      "VIP룸",
      "발렛주차"
    ],
    "map_url": "https://map.naver.com/v5/search/인천%20아라비안나이트",
    "detail_page": "/i/",
    "card_hook": "인천 최대 규모, 3개 층으로 나뉜 플로어에서 취향에 따라 분위기를 고른다. 발렛 주차와 VIP룸 완비.",
    "card_value": "계양역 도보 5분. 발렛 주차 가능. 연중무휴.",
    "card_tags": [
      "인천최대",
      "VIP룸",
      "발렛주차"
    ],
    "keywords": [
      "인천나이트",
      "아라비안나이트",
      "계양나이트"
    ],
    "source_urls": []
  },
  {
    "name": "파주야당스카이돔나이트",
    "category": "나이트",
    "cat_slug": "night",
    "region": "경기",
    "region_slug": "gyeonggi",
    "district": "파주시",
    "district_slug": "paju",
    "slug": "yadang-skydome",
    "address": "경기 파주시 소리천로 25 유은7차 B구역",
    "phone": "031-942-4422",
    "hours": "21:00~06:00 (일 ~05:00)",
    "station": "야당역 택시 7분",
    "thumbnail": "/f/paju-yadang-skydome-night.png",
    "image_alt": "파주야당스카이돔나이트 경기 파주 나이트 썸네일",
    "badge": null,
    "tags": [
      "돔형",
      "파주",
      "주차가능"
    ],
    "map_url": "https://map.naver.com/v5/search/파주%20야당%20스카이돔나이트",
    "detail_page": "/f/",
    "card_hook": "높은 돔 천장 아래 음향이 넓게 퍼진다. 일반 건물에서 느낄 수 없는 개방감이 발걸음을 가볍게 만든다.",
    "card_value": "야당역 택시 7분. 자가용 추천, 건물 주차장 있음.",
    "card_tags": [
      "돔형",
      "파주",
      "주차가능"
    ],
    "keywords": [
      "파주나이트",
      "스카이돔",
      "야당나이트"
    ],
    "source_urls": []
  },
  {
    "name": "수원찬스돔나이트",
    "category": "나이트",
    "cat_slug": "night",
    "region": "경기",
    "region_slug": "gyeonggi",
    "district": "권선구",
    "district_slug": "gwonseon",
    "slug": "chancedom",
    "address": "경기 수원시 권선구 권선로 673",
    "phone": "031-226-1104",
    "hours": "20:00~05:00",
    "station": "수원역 택시 10분",
    "thumbnail": "/j/suwon-chancedom-night-thumb.png",
    "image_alt": "수원찬스돔나이트 경기 권선 나이트 썸네일",
    "badge": null,
    "tags": [
      "수원",
      "대규모",
      "워크인"
    ],
    "map_url": "https://map.naver.com/v5/search/수원%20찬스돔나이트",
    "detail_page": "/j/",
    "card_hook": "수원 최대 규모. 시간대별로 분위기가 완전히 전환되는 구조라 몇 시에 도착하느냐가 경험을 바꾼다.",
    "card_value": "수원역 택시 10분. 워크인 가능, 주말 예약 유리.",
    "card_tags": [
      "수원",
      "대규모",
      "워크인"
    ],
    "keywords": [
      "수원나이트",
      "찬스돔"
    ],
    "source_urls": []
  },
  {
    "name": "신림그랑프리나이트",
    "category": "나이트",
    "cat_slug": "night",
    "region": "서울",
    "region_slug": "seoul",
    "district": "관악구",
    "district_slug": "gwanak",
    "slug": "grandprix",
    "address": "서울 관악구 신림로 340",
    "phone": "010-5934-2617",
    "hours": "평일 18:00~04:00, 주말 18:00~06:00",
    "station": "신림역 2호선 1번 출구 도보 3분",
    "thumbnail": "/l/sillim-grandprix-night-thumb.png",
    "image_alt": "신림그랑프리나이트 서울 관악 나이트 썸네일",
    "badge": null,
    "tags": [
      "신림역",
      "편안함",
      "첫방문"
    ],
    "map_url": "https://map.naver.com/v5/search/신림%20그랑프리나이트",
    "detail_page": "/l/",
    "card_hook": "역에서 3분, 부담 없는 분위기로 첫 방문자도 자연스럽게 녹아든다. 신림의 밤은 여기서 시작된다.",
    "card_value": "2호선 신림역 1번 출구 직진 3분. 평일 저녁 추천.",
    "card_tags": [
      "신림역",
      "편안함",
      "첫방문"
    ],
    "keywords": [
      "신림나이트",
      "그랑프리"
    ],
    "source_urls": []
  },
  {
    "name": "대전세븐나이트",
    "category": "나이트",
    "cat_slug": "night",
    "region": "대전",
    "region_slug": "daejeon",
    "district": "중구",
    "district_slug": "junggu",
    "slug": "seven",
    "address": "대전 중구 당디로 112",
    "phone": "",
    "hours": "20:00~05:00",
    "station": "대전역 택시 10분",
    "thumbnail": "/t/daejeon-seven-thumb.png",
    "image_alt": "대전세븐나이트 대전 중 나이트 썸네일",
    "badge": null,
    "tags": [
      "대전",
      "충청권",
      "KTX"
    ],
    "map_url": "https://map.naver.com/v5/search/대전%20세븐나이트",
    "detail_page": "/t/",
    "card_hook": "KTX 타고 원정 오는 방문객이 주말마다 몰린다. 충청권 대형 나이트의 열기는 직접 와야 체감된다.",
    "card_value": "대전역 택시 10분. 숙소를 근처에 잡으면 편리.",
    "card_tags": [
      "대전",
      "충청권",
      "KTX원정"
    ],
    "keywords": [
      "대전나이트",
      "세븐나이트"
    ],
    "source_urls": []
  },
  {
    "name": "인덕원국빈관나이트",
    "category": "나이트",
    "cat_slug": "night",
    "region": "경기",
    "region_slug": "gyeonggi",
    "district": "동안구",
    "district_slug": "dongan",
    "slug": "gukbingwan",
    "address": "경기 안양시 동안구 관양동 1505-25 삼우프라자 B1",
    "phone": "",
    "hours": "20:00~05:00",
    "station": "인덕원역 4호선 도보 8분",
    "thumbnail": "/q/naver-thumb.png",
    "image_alt": "인덕원국빈관나이트 경기 동안 나이트 썸네일",
    "badge": null,
    "tags": [
      "인덕원",
      "경기남부",
      "카톡예약"
    ],
    "map_url": "https://map.naver.com/v5/search/인덕원%20국빈관나이트",
    "detail_page": "/q/",
    "card_hook": "경기 남부 야간 문화의 거점. 볼륨보다 대화가 우선인 라운지형 분위기가 나이트 초보에게도 편안하다.",
    "card_value": "인덕원역 도보 8분. 카톡 besta12로 예약 문의.",
    "card_tags": [
      "인덕원",
      "라운지형",
      "카톡예약"
    ],
    "keywords": [
      "인덕원나이트",
      "국빈관"
    ],
    "source_urls": []
  },
  {
    "name": "울산챔피언나이트",
    "category": "나이트",
    "cat_slug": "night",
    "region": "울산",
    "region_slug": "ulsan",
    "district": "중구",
    "district_slug": "junggu",
    "slug": "champion",
    "address": "울산 남구 정동로 75",
    "phone": "010-4674-5602",
    "hours": "20:00~05:00",
    "station": "삼산동 택시 5분",
    "thumbnail": "/r/naver-thumb.png",
    "image_alt": "울산챔피언나이트 울산 중 나이트 썸네일",
    "badge": null,
    "tags": [
      "울산",
      "영남권",
      "단체방문"
    ],
    "map_url": "https://map.naver.com/v5/search/울산%20챔피언나이트",
    "detail_page": "/r/",
    "card_hook": "영남권 전역에서 단체 방문이 몰리는 울산 대표 나이트. 주말 에너지가 KTX 거리를 무색하게 만든다.",
    "card_value": "울산역 택시 20분. 주말 단체 시 사전 예약 필수.",
    "card_tags": [
      "울산",
      "영남권",
      "단체방문"
    ],
    "keywords": [
      "울산나이트",
      "챔피언나이트"
    ],
    "source_urls": []
  },
  {
    "name": "일산샴푸나이트",
    "category": "나이트",
    "cat_slug": "night",
    "region": "경기",
    "region_slug": "gyeonggi",
    "district": "일산동구",
    "district_slug": "ilsandong",
    "slug": "shampoo",
    "address": "경기 고양시 일산동구 마두역 인근",
    "phone": "010-2133-1346",
    "hours": "20:00~05:00",
    "station": "백석역 도보 10분",
    "thumbnail": "/s/hero-thumb.png",
    "image_alt": "일산샴푸나이트 경기 일산동 나이트 썸네일",
    "badge": null,
    "tags": [
      "일산",
      "최대규모",
      "백석역"
    ],
    "map_url": "https://map.naver.com/v5/search/일산%20샴푸나이트",
    "detail_page": "/s/",
    "card_hook": "넓은 플로어와 다양한 좌석 배치로 경기 북부 야간 문화의 중심축 역할을 한다. 규모가 주는 안정감.",
    "card_value": "백석역 도보 10분. 건물 주차장 이용 가능.",
    "card_tags": [
      "일산",
      "최대규모",
      "백석역"
    ],
    "keywords": [
      "일산나이트",
      "일산샴푸"
    ],
    "source_urls": []
  },
  {
    "name": "청담h2o나이트",
    "category": "나이트",
    "cat_slug": "night",
    "region": "서울",
    "region_slug": "seoul",
    "district": "강남구",
    "district_slug": "gangnam",
    "slug": "h2o",
    "address": "서울 강남구 영동대로 737 리베라호텔 B1",
    "phone": "010-5655-4866",
    "hours": "21:00~05:00",
    "station": "청담역 도보 7분",
    "thumbnail": "/x/hero-party.png",
    "image_alt": "청담h2o나이트 서울 강남 나이트 썸네일",
    "badge": null,
    "tags": [
      "청담",
      "드레스코드",
      "프리미엄"
    ],
    "map_url": "https://map.naver.com/v5/search/청담%20h2o나이트",
    "detail_page": "/x/",
    "card_hook": "청담 특유의 세련된 무드와 엄격한 드레스코드. 입장 문턱이 높은 만큼 내부 퀄리티가 보장된다.",
    "card_value": "청담역 도보 7분. 드레스코드: 스마트캐주얼 이상.",
    "card_tags": [
      "청담",
      "드레스코드",
      "프리미엄"
    ],
    "keywords": [
      "청담나이트",
      "h2o나이트"
    ],
    "source_urls": []
  },
  {
    "name": "부산아시아드나이트",
    "category": "나이트",
    "cat_slug": "night",
    "region": "부산",
    "region_slug": "busan",
    "district": "동래구",
    "district_slug": "dongnae",
    "slug": "asiad",
    "address": "부산 동래구 온천장로107번길 32 B1~B2",
    "phone": "051-997-8888",
    "hours": "24시간",
    "station": "온천장역 도보 5분",
    "thumbnail": "/images/girl-model-party.png",
    "image_alt": "부산아시아드나이트 부산 동래 나이트 썸네일",
    "badge": "24H",
    "tags": [
      "부산",
      "24시간",
      "온천장"
    ],
    "map_url": "https://map.naver.com/v5/search/부산%20아시아드나이트",
    "card_hook": "24시간 멈추지 않는 부산 동래의 전설. 새벽에 들어가 오후에 나와도 비트가 계속된다.",
    "card_value": "24시간 운영. 온천장역 도보 5분.",
    "card_tags": [
      "24시간",
      "부산",
      "온천장"
    ],
    "keywords": [
      "부산나이트",
      "아시아드나이트",
      "온천장나이트"
    ],
    "source_urls": []
  },
  {
    "name": "대구한국관나이트",
    "category": "나이트",
    "cat_slug": "night",
    "region": "대구",
    "region_slug": "daegu",
    "district": "수성구",
    "district_slug": "suseong",
    "slug": "hangukgwan",
    "address": "대구 수성구 청수로 123",
    "phone": "010-2023-5553",
    "hours": "20:00~05:00",
    "station": "수성구 소재",
    "thumbnail": "/images/girl-model-party.png",
    "image_alt": "대구한국관나이트 대구 수성 나이트 썸네일",
    "badge": null,
    "tags": [
      "대구",
      "수성구",
      "라이브"
    ],
    "map_url": "https://map.naver.com/v5/search/대구%20한국관나이트",
    "card_hook": "라이브 무대와 트로트 타임이 번갈아 이어진다. 연령대를 가리지 않는 에너지가 대구 수성구의 밤을 채운다.",
    "card_value": "수성구 소재. 20시~05시. 전화 예약 권장.",
    "card_tags": [
      "대구",
      "수성구",
      "라이브"
    ],
    "keywords": [
      "대구나이트",
      "대구한국관"
    ],
    "source_urls": []
  },
  {
    "name": "대구 룰루랄라",
    "category": "나이트",
    "cat_slug": "night",
    "region": "대구",
    "region_slug": "daegu",
    "district": "수성구",
    "district_slug": "suseong",
    "slug": "lululala",
    "address": "대구 수성구 두산동 119-3",
    "phone": "010-8591-9119",
    "hours": "월~목 ~03:00, 금·토 ~05:00",
    "station": "두산동 소재",
    "thumbnail": "/images/girl-model-party.png",
    "image_alt": "대구 룰루랄라 대구 수성 나이트 썸네일",
    "badge": null,
    "tags": [
      "대구",
      "가요",
      "트로트"
    ],
    "map_url": "https://map.naver.com/v5/search/대구%20룰루랄라%20나이트",
    "card_hook": "이름처럼 흥겨운 가요·트로트 중심 무대. 평일 밤에도 플로어에 빈자리가 없는 건 대구 로컬의 단골력 덕분.",
    "card_value": "월~목 03시, 금·토 05시 마감. 평일도 활발.",
    "card_tags": [
      "대구",
      "가요",
      "트로트"
    ],
    "keywords": [
      "룰루랄라",
      "대구트로트나이트"
    ],
    "source_urls": []
  },
  {
    "name": "광주 프린스나이트",
    "category": "나이트",
    "cat_slug": "night",
    "region": "광주",
    "region_slug": "gwangju",
    "district": "북구",
    "district_slug": "bukgu",
    "slug": "prince",
    "address": "광주 북구 북문대로 70",
    "phone": "062-523-0207",
    "hours": "20:00~05:00",
    "station": "운암동 소재",
    "thumbnail": "/images/girl-model-party.png",
    "image_alt": "광주 프린스나이트 광주 북 나이트 썸네일",
    "badge": null,
    "tags": [
      "광주",
      "호남권",
      "댄스"
    ],
    "map_url": "https://map.naver.com/v5/search/광주%20프린스나이트",
    "card_hook": "호남권 대표 나이트. 라이브와 댄스가 교차하며 광주 특유의 흥을 플로어 위에서 느낄 수 있다.",
    "card_value": "20시~05시. 운암동 소재. 전화 문의 후 방문 권장.",
    "card_tags": [
      "광주",
      "호남권",
      "라이브"
    ],
    "keywords": [
      "광주나이트",
      "프린스나이트"
    ],
    "source_urls": []
  },
  {
    "name": "광주 첨단물나이트",
    "category": "나이트",
    "cat_slug": "night",
    "region": "광주",
    "region_slug": "gwangju",
    "district": "광산구",
    "district_slug": "gwangsan",
    "slug": "cheomdan-mul",
    "address": "광주 광산구 임방울대로800번길 52",
    "phone": "",
    "hours": "20:00~05:00",
    "station": "첨단지구 소재",
    "thumbnail": "/images/girl-model-party.png",
    "image_alt": "광주 첨단물나이트 광주 광산 나이트 썸네일",
    "badge": null,
    "tags": [
      "광주",
      "첨단지구",
      "신규"
    ],
    "map_url": "https://map.naver.com/v5/search/광주%20첨단물나이트",
    "card_hook": "첨단지구에 들어선 비교적 새로운 나이트. 깔끔한 인테리어와 음향 세팅이 기존 무대와 다른 결을 보여준다.",
    "card_value": "첨단지구 소재. 20시~05시.",
    "card_tags": [
      "광주",
      "첨단지구",
      "신규"
    ],
    "keywords": [
      "광주첨단나이트",
      "물나이트"
    ],
    "source_urls": []
  },
  {
    "name": "대전 으뜸원나이트",
    "category": "나이트",
    "cat_slug": "night",
    "region": "대전",
    "region_slug": "daejeon",
    "district": "동구",
    "district_slug": "donggu",
    "slug": "one",
    "address": "대전 동구 동서대로1683번길 76-8",
    "phone": "042-622-0077",
    "hours": "20:00~05:00",
    "station": "용전동 소재",
    "thumbnail": "/images/girl-model-party.png",
    "image_alt": "대전 으뜸원나이트 대전 동 나이트 썸네일",
    "badge": null,
    "tags": [
      "대전",
      "동구",
      "로컬"
    ],
    "map_url": "https://map.naver.com/v5/search/대전%20으뜸원나이트",
    "card_hook": "세븐나이트와 양대 산맥으로 대전 나이트 씬의 폭을 넓힌다. 동구 용전동의 로컬 색이 진하다.",
    "card_value": "20시~05시. 용전동 소재. 전화 확인 후 방문 추천.",
    "card_tags": [
      "대전",
      "동구",
      "로컬"
    ],
    "keywords": [
      "으뜸원나이트",
      "대전동구나이트"
    ],
    "source_urls": []
  },
  {
    "name": "코드라운지",
    "category": "라운지",
    "cat_slug": "lounge",
    "region": "서울",
    "region_slug": "seoul",
    "district": "강남구",
    "district_slug": "gangnam",
    "slug": "code",
    "address": "서울 강남구 압구정 로데오",
    "phone": "010-9881-4674",
    "hours": "20:00~03:00",
    "station": "압구정로데오역 5번 출구 도보 3분",
    "thumbnail": "/images/girl-model-party.png",
    "image_alt": "코드라운지 서울 강남 라운지 썸네일",
    "badge": null,
    "tags": [
      "라운지",
      "예약필수",
      "압구정"
    ],
    "map_url": "https://map.naver.com/v5/search/%EC%BD%94%EB%93%9C%EB%9D%BC%EC%9A%B4%EC%A7%80%20%EC%95%95%EA%B5%AC%EC%A0%95",
    "card_hook": "프라이빗 테이블 중심, 음악 볼륨은 대화가 가능한 수준으로 유지된다. 비즈니스 애프터와 소규모 모임에 적합하다.",
    "card_value": "사전 예약 필수. 압구정로데오역 5번 출구 3분.",
    "card_tags": [
      "프라이빗",
      "예약필수",
      "압구정"
    ],
    "keywords": [
      "코드라운지",
      "압구정라운지"
    ],
    "source_urls": []
  },
  {
    "name": "하이프서울",
    "category": "라운지",
    "cat_slug": "lounge",
    "region": "서울",
    "region_slug": "seoul",
    "district": "강남구",
    "district_slug": "gangnam",
    "slug": "hype",
    "address": "서울 강남구 압구정 로데오",
    "phone": "",
    "hours": "20:00~03:00",
    "station": "압구정로데오역 도보 5분",
    "thumbnail": "/images/girl-model-party.png",
    "image_alt": "하이프서울 서울 강남 라운지 썸네일",
    "badge": null,
    "tags": [
      "힙합",
      "R&B",
      "드레스코드"
    ],
    "map_url": "https://map.naver.com/v5/search/%ED%95%98%EC%9D%B4%ED%94%84%EC%84%9C%EC%9A%B8%20%EC%95%95%EA%B5%AC%EC%A0%95",
    "card_hook": "힙합과 R&B를 베이스로, 압구정 패션 피플이 모이는 프리미엄 라운지. 주말 밤 드레스코드가 분위기를 한 단계 올린다.",
    "card_value": "주말 드레스코드: 스마트캐주얼 이상. 슬리퍼 불가.",
    "card_tags": [
      "힙합",
      "R&B",
      "드레스코드"
    ],
    "keywords": [
      "하이프서울",
      "압구정라운지"
    ],
    "source_urls": []
  },
  {
    "name": "인트로라운지",
    "category": "라운지",
    "cat_slug": "lounge",
    "region": "서울",
    "region_slug": "seoul",
    "district": "강남구",
    "district_slug": "gangnam",
    "slug": "intro",
    "address": "서울 강남구 압구정로데오 일대",
    "phone": "010-4336-3008",
    "hours": "19:00~02:00",
    "station": "압구정로데오역 도보 5분",
    "thumbnail": "/images/girl-model-party.png",
    "image_alt": "인트로라운지 서울 강남 라운지 썸네일",
    "badge": null,
    "tags": [
      "라운지",
      "프라이빗",
      "압구정"
    ],
    "map_url": "https://map.naver.com/v5/search/%EC%9D%B8%ED%8A%B8%EB%A1%9C%EB%9D%BC%EC%9A%B4%EC%A7%80%20%EC%95%95%EA%B5%AC%EC%A0%95",
    "card_hook": "입구를 지나면 조용한 대화와 칵테일이 흐른다. 시끄럽지 않은 2차, 소규모 모임에 정확히 맞는 동선.",
    "card_value": "19시~02시. 예약 추천. 압구정로데오역 5분.",
    "card_tags": [
      "칵테일",
      "소모임",
      "압구정"
    ],
    "keywords": [
      "인트로라운지",
      "압구정프라이빗"
    ],
    "source_urls": []
  },
  {
    "name": "DM라운지",
    "category": "라운지",
    "cat_slug": "lounge",
    "region": "서울",
    "region_slug": "seoul",
    "district": "강남구",
    "district_slug": "gangnam",
    "slug": "dm",
    "address": "서울 강남구 압구정로데오 일대",
    "phone": "",
    "hours": "20:00~03:00",
    "station": "압구정로데오역 도보 5분",
    "thumbnail": "/images/girl-model-party.png",
    "image_alt": "DM라운지 서울 강남 라운지 썸네일",
    "badge": null,
    "tags": [
      "라운지",
      "셀럽",
      "압구정"
    ],
    "map_url": "https://map.naver.com/v5/search/DM%EB%9D%BC%EC%9A%B4%EC%A7%80%20%EC%95%95%EA%B5%AC%EC%A0%95",
    "card_hook": "압구정 뒷길, 간판 없이 운영되는 멤버십형 라운지. 초대받아야 들어간다는 소문 자체가 브랜드다.",
    "card_value": "20시~03시. 사전 연락 필수. 압구정로데오역 5분.",
    "card_tags": [
      "멤버십",
      "셀럽",
      "초대제"
    ],
    "keywords": [
      "DM라운지",
      "압구정멤버십"
    ],
    "source_urls": []
  },
  {
    "name": "컬러라운지",
    "category": "라운지",
    "cat_slug": "lounge",
    "region": "서울",
    "region_slug": "seoul",
    "district": "강남구",
    "district_slug": "gangnam",
    "slug": "color",
    "address": "서울 강남구 압구정로데오 일대",
    "phone": "",
    "hours": "20:00~03:00",
    "station": "압구정로데오역 도보 7분",
    "thumbnail": "/images/girl-model-party.png",
    "image_alt": "컬러라운지 서울 강남 라운지 썸네일",
    "badge": null,
    "tags": [
      "라운지",
      "인테리어",
      "2차"
    ],
    "map_url": "https://map.naver.com/v5/search/%EC%BB%AC%EB%9F%AC%EB%9D%BC%EC%9A%B4%EC%A7%80%20%EC%95%95%EA%B5%AC%EC%A0%95",
    "card_hook": "조명 톤이 시간대별로 바뀐다. 이른 저녁은 따뜻한 앰버, 심야에는 차가운 블루 — 같은 자리에서 두 가지 분위기.",
    "card_value": "20시~03시. 압구정로데오역 7분.",
    "card_tags": [
      "무드조명",
      "인테리어",
      "2차추천"
    ],
    "keywords": [
      "컬러라운지",
      "압구정무드바"
    ],
    "source_urls": []
  },
  {
    "name": "르클럽",
    "category": "라운지",
    "cat_slug": "lounge",
    "region": "서울",
    "region_slug": "seoul",
    "district": "강남구",
    "district_slug": "gangnam",
    "slug": "le-club",
    "address": "서울 강남구 청담동 96-14 1층",
    "phone": "",
    "hours": "19:00~03:00",
    "station": "청담역 도보 5분",
    "thumbnail": "/images/girl-model-party.png",
    "image_alt": "르클럽 서울 강남 라운지 썸네일",
    "badge": null,
    "tags": [
      "청담",
      "프리미엄",
      "와인"
    ],
    "map_url": "https://map.naver.com/v5/search/르클럽%20청담",
    "card_hook": "청담동 1층, 골목에 면한 유리창 너머 고급 인테리어가 첫인상을 결정한다. 와인 리스트와 조용한 대화가 중심.",
    "card_value": "19시~03시. 청담역 도보 5분. 사전 예약 권장.",
    "card_tags": [
      "청담",
      "와인",
      "프리미엄"
    ],
    "keywords": [
      "르클럽",
      "청담라운지"
    ],
    "source_urls": []
  },
  {
    "name": "더 시에나",
    "category": "라운지",
    "cat_slug": "lounge",
    "region": "서울",
    "region_slug": "seoul",
    "district": "강남구",
    "district_slug": "gangnam",
    "slug": "siena",
    "address": "서울 강남구 청담동 B1~4층",
    "phone": "",
    "hours": "18:00~02:00",
    "station": "청담역 도보 7분",
    "thumbnail": "/images/girl-model-party.png",
    "image_alt": "더 시에나 서울 강남 라운지 썸네일",
    "badge": null,
    "tags": [
      "청담",
      "다층",
      "다이닝"
    ],
    "map_url": "https://map.naver.com/v5/search/더시에나%20청담",
    "card_hook": "B1부터 4층까지 층마다 컨셉이 다른 복합 라운지. 다이닝으로 시작해 루프탑 바에서 마무리하는 원스톱 코스.",
    "card_value": "18시~02시. B1~4층 구성. 청담역 7분.",
    "card_tags": [
      "청담",
      "다층",
      "다이닝"
    ],
    "keywords": [
      "더시에나",
      "청담복합라운지"
    ],
    "source_urls": []
  },
  {
    "name": "엘빈에비뉴",
    "category": "라운지",
    "cat_slug": "lounge",
    "region": "서울",
    "region_slug": "seoul",
    "district": "강남구",
    "district_slug": "gangnam",
    "slug": "alvin-avenue",
    "address": "서울 강남구 강남대로92길 13 제리스플래닛 B1",
    "phone": "",
    "hours": "20:00~04:00",
    "station": "강남역 도보 5분",
    "thumbnail": "/images/girl-model-party.png",
    "image_alt": "엘빈에비뉴 서울 강남 라운지 썸네일",
    "badge": null,
    "tags": [
      "강남역",
      "칵테일",
      "DJ"
    ],
    "map_url": "https://map.naver.com/v5/search/엘빈에비뉴%20강남",
    "card_hook": "강남역 뒷골목 B1, 칵테일 바와 DJ 부스가 공존한다. 초반은 조용하게, 자정 넘으면 분위기가 반전된다.",
    "card_value": "20시~04시. 강남역 도보 5분.",
    "card_tags": [
      "강남역",
      "칵테일",
      "DJ"
    ],
    "keywords": [
      "엘빈에비뉴",
      "강남라운지"
    ],
    "source_urls": []
  },
  {
    "name": "달리는토끼",
    "category": "라운지",
    "cat_slug": "lounge",
    "region": "서울",
    "region_slug": "seoul",
    "district": "강남구",
    "district_slug": "gangnam",
    "slug": "running-rabbit",
    "address": "서울 강남구 역삼동 605",
    "phone": "",
    "hours": "19:00~03:00",
    "station": "역삼역 도보 5분",
    "thumbnail": "/images/girl-model-party.png",
    "image_alt": "달리는토끼 서울 강남 라운지 썸네일",
    "badge": null,
    "tags": [
      "역삼",
      "감성",
      "소규모"
    ],
    "map_url": "https://map.naver.com/v5/search/달리는토끼%20역삼",
    "card_hook": "역삼 골목의 아담한 감성 라운지. 조명이 어둡고 음악이 낮아서, 대화에 집중하고 싶은 밤에 어울린다.",
    "card_value": "19시~03시. 역삼역 도보 5분. 소규모 모임 적합.",
    "card_tags": [
      "역삼",
      "감성",
      "대화중심"
    ],
    "keywords": [
      "달리는토끼",
      "역삼라운지"
    ],
    "source_urls": []
  },
  {
    "name": "스카이 라운지",
    "category": "라운지",
    "cat_slug": "lounge",
    "region": "서울",
    "region_slug": "seoul",
    "district": "강남구",
    "district_slug": "gangnam",
    "slug": "sky-lounge",
    "address": "서울 강남구 봉은사로 524 인터컨티넨탈 코엑스 최상층",
    "phone": "",
    "hours": "17:00~01:00",
    "station": "삼성역 도보 5분",
    "thumbnail": "/images/girl-model-party.png",
    "image_alt": "스카이 라운지 서울 강남 라운지 썸네일",
    "badge": "VIEW",
    "tags": [
      "호텔",
      "야경",
      "코엑스"
    ],
    "map_url": "https://map.naver.com/v5/search/스카이라운지%20인터컨티넨탈%20코엑스",
    "card_hook": "코엑스 인터컨티넨탈 최상층에서 강남 스카이라인을 내려다본다. 특별한 날 꺼내는 카드로 손색없는 높이.",
    "card_value": "17시~01시. 삼성역 도보 5분. 예약 권장.",
    "card_tags": [
      "호텔",
      "야경",
      "특별한날"
    ],
    "keywords": [
      "스카이라운지",
      "코엑스호텔바"
    ],
    "source_urls": []
  },
  {
    "name": "파크 하얏트 부산 리빙룸",
    "category": "라운지",
    "cat_slug": "lounge",
    "region": "부산",
    "region_slug": "busan",
    "district": "해운대구",
    "district_slug": "haeundae",
    "slug": "park-hyatt",
    "address": "부산 해운대구 마린시티1로 51",
    "phone": "",
    "hours": "11:00~01:00",
    "station": "해운대 마린시티 소재",
    "thumbnail": "/images/girl-model-party.png",
    "image_alt": "파크 하얏트 부산 리빙룸 부산 해운대 라운지 썸네일",
    "badge": "HOTEL",
    "tags": [
      "해운대",
      "호텔",
      "오션뷰"
    ],
    "map_url": "https://map.naver.com/v5/search/파크하얏트부산%20리빙룸",
    "card_hook": "마린시티 바다 위에 떠 있는 듯한 라운지. 오션뷰와 위스키 한 잔이면 부산 여행의 마무리가 완성된다.",
    "card_value": "11시~01시. 해운대 마린시티 소재. 예약 권장.",
    "card_tags": [
      "해운대",
      "오션뷰",
      "호텔"
    ],
    "keywords": [
      "파크하얏트부산",
      "해운대호텔라운지"
    ],
    "source_urls": []
  },
  {
    "name": "수유샴푸나이트 파이프라인",
    "category": "나이트",
    "cat_slug": "night",
    "region": "서울",
    "region_slug": "seoul",
    "district": "강북구",
    "district_slug": "gangbuk",
    "slug": "suyu-pipeline",
    "address": "서울 강북구 수유동",
    "phone": "010-7475-2342",
    "hours": "19:00~05:00",
    "station": "수유역 4호선 도보 5분",
    "thumbnail": "/y/og-image.jpg",
    "image_alt": "수유샴푸나이트 파이프라인 서울 강북 나이트 썸네일",
    "badge": null,
    "tags": [
      "수유",
      "강북",
      "파이프라인"
    ],
    "map_url": "https://map.naver.com/v5/search/수유%20샴푸나이트",
    "detail_page": "/z/",
    "card_hook": "검색에서 귀갓길까지 끊기지 않는 동선 가이드. 수유 나이트의 확장판으로 핵심 루트를 짚어 준다.",
    "card_value": "수유역 도보 5분. 본관과 가까운 거리.",
    "card_tags": [
      "수유",
      "동선가이드",
      "강북"
    ],
    "keywords": [
      "수유나이트",
      "파이프라인"
    ],
    "source_urls": []
  },
  {
    "name": "수유샴푸나이트 체크리스트",
    "category": "나이트",
    "cat_slug": "night",
    "region": "서울",
    "region_slug": "seoul",
    "district": "강북구",
    "district_slug": "gangbuk",
    "slug": "suyu-checklist",
    "address": "서울 강북구 도봉로 308",
    "phone": "010-7475-2342",
    "hours": "19:00~05:00",
    "station": "수유역 4호선 3번 출구 도보 4분",
    "thumbnail": "/u/p-thumb.png",
    "image_alt": "수유샴푸나이트 체크리스트 서울 강북 나이트 썸네일",
    "badge": null,
    "tags": [
      "수유",
      "체크리스트",
      "초보"
    ],
    "map_url": "https://map.naver.com/v5/search/수유%20샴푸나이트",
    "detail_page": "/u/",
    "card_hook": "첫 방문이라면 일곱 가지 체크포인트부터 확인하라. 출발 준비부터 귀가까지 빈틈없는 안내.",
    "card_value": "수유역 3번 출구 도보 4분. 체크리스트 확인 후 출발.",
    "card_tags": [
      "체크리스트",
      "초보",
      "수유역"
    ],
    "keywords": [
      "수유나이트체크",
      "첫방문가이드"
    ],
    "source_urls": []
  }
]
